id,name.local,name.en,name.slug,code.id,zip_codes,geo.lat,geo.lon
MA002009_ain-dorbane,Ain Dorbane,Ain Dorbane,ain-dorbane,MA002009_ain-dorbane,26053,32.775,-7.498
MA002009_ain-nzarh,Ain Nzarh,Ain Nzarh,ain-nzarh,MA002009_ain-nzarh,26022,32.978,-7.746
MA002009_arba-oulad-bou-ali,Arba Oulad Bou Ali,Arba Oulad Bou Ali,arba-oulad-bou-ali,MA002009_arba-oulad-bou-ali,26272,32.519,-7.253
MA002009_ben-ahmed,Ben Ahmed,Ben Ahmed,ben-ahmed,MA002009_ben-ahmed,26050,33.066,-7.242
MA002009_bni-khloug,Bni Khloug,Bni Khloug,bni-khloug,MA002009_bni-khloug,26152,32.643,-7.381
MA002009_bni-yagrine,Bni Yagrine,Bni Yagrine,bni-yagrine,MA002009_bni-yagrine,26014,32.775,-7.498
MA002009_bouguargouh,Bouguargouh,Bouguargouh,bouguargouh,MA002009_bouguargouh,26054,32.775,-7.498
MA002009_dar-chaffai,Dar Chaffai,Dar Chaffai,dar-chaffai,MA002009_dar-chaffai,26172,32.548,-7.5
MA002009_deroua-oulad-ziane,Deroua Oulad Ziane,Deroua Oulad Ziane,deroua-oulad-ziane,MA002009_deroua-oulad-ziane,26202,32.601,-7.313
MA002009_douar-ouled-naceur,Douar Ouled Naceur,Douar Ouled Naceur,douar-ouled-naceur,MA002009_douar-ouled-naceur,26573,33.02,-7.333
MA002009_el-borouj,El Borouj,El Borouj,el-borouj,MA002009_el-borouj,26250,32.505,-7.192
MA002009_ghnimiyne,Ghnimiyne,Ghnimiyne,ghnimiyne,MA002009_ghnimiyne,26473,33.064,-8.067
MA002009_guisser,Guisser,Guisser,guisser,MA002009_guisser,26352,32.767,-7.498
MA002009_had-mzoura,Had Mzoura,Had Mzoura,had-mzoura,MA002009_had-mzoura,26023,32.833,-7.869
MA002009_imfout,Imfout,Imfout,imfout,MA002009_imfout,26672,32.73,-7.931
MA002009_khemis-gdana,Khemis Gdana,Khemis Gdana,khemis-gdana,MA002009_khemis-gdana,26522,32.994,-7.573
MA002009_khemisset-chaouia,Khemisset Chaouia,Khemisset Chaouia,khemisset-chaouia,MA002009_khemisset-chaouia,26015,32.775,-7.498
MA002009_krakra,Krakra,Krakra,krakra,MA002009_krakra,26273,32.519,-7.253
MA002009_lahlaf-mzab,Lahlaf Mzab,Lahlaf Mzab,lahlaf-mzab,MA002009_lahlaf-mzab,26055,32.775,-7.498
MA002009_lahouaza,Lahouaza,Lahouaza,lahouaza,MA002009_lahouaza,26016,32.775,-7.498
MA002009_lakhzazra,Lakhzazra,Lakhzazra,lakhzazra,MA002009_lakhzazra,26056,32.775,-7.498
MA002009_mechra-ben-abbou,Mechra Ben Abbou,Mechra Ben Abbou,mechra-ben-abbou,MA002009_mechra-ben-abbou,26673,32.754,-7.799
MA002009_meskoura,Meskoura,Meskoura,meskoura,MA002009_meskoura,26703,32.775,-7.498
MA002009_mgarto,Mgarto,Mgarto,mgarto,MA002009_mgarto,26072,33.175,-7.154
MA002009_mniaa,Mniaa,Mniaa,mniaa,MA002009_mniaa,26062,32.775,-7.498
MA002009_mrizig,Mrizig,Mrizig,mrizig,MA002009_mrizig,26622,32.846,-7.098
MA002009_mzamza-janoubia,Mzamza Janoubia,Mzamza Janoubia,mzamza-janoubia,MA002009_mzamza-janoubia,26066,32.775,-7.498
MA002009_nkhila,Nkhila,Nkhila,nkhila,MA002009_nkhila,26722,32.995,-7.12
MA002009_oued-bers,Oued Bers,Oued Bers,oued-bers,MA002009_oued-bers,26472,32.982,-8.015
MA002009_oued-naanaa,Oued Naanaa,Oued Naanaa,oued-naanaa,MA002009_oued-naanaa,26572,33.02,-7.333
MA002009_oulad-aafif,Oulad Aafif,Oulad Aafif,oulad-aafif,MA002009_oulad-aafif,26025,32.775,-7.498
MA002009_oulad-amera,Oulad Amera,Oulad Amera,oulad-amera,MA002009_oulad-amera,26682,32.775,-7.498
MA002009_oulad-belkacem,Oulad Belkacem,Oulad Belkacem,oulad-belkacem,MA002009_oulad-belkacem,26274,32.519,-7.253
MA002009_oulad-chbana,Oulad Chbana,Oulad Chbana,oulad-chbana,MA002009_oulad-chbana,26063,32.775,-7.498
MA002009_oulad-driss,Oulad Driss,Oulad Driss,oulad-driss,MA002009_oulad-driss,26275,32.442,-7.212
MA002009_oulad-hammou,Oulad Hammou,Oulad Hammou,oulad-hammou,MA002009_oulad-hammou,26276,32.596,-7.293
MA002009_oulad-mhamed,Oulad Mhamed,Oulad Mhamed,oulad-mhamed,MA002009_oulad-mhamed,26073,33.117,-7.168
MA002009_oulad-mrah,Oulad Mrah,Oulad Mrah,oulad-mrah,MA002009_oulad-mrah,26032,32.775,-7.498
MA002009_oulad-njima,Oulad N'Jima,Oulad N'Jima,oulad-njima,MA002009_oulad-njima,26173,32.534,-7.441
MA002009_oulad-said,Oulad Said,Oulad Said,oulad-said,MA002009_oulad-said,26502,32.968,-7.813
MA002009_oulad-ziane,Oulad Ziane,Oulad Ziane,oulad-ziane,MA002009_oulad-ziane,26422,33.04,-7.898
MA002009_ouled-zidane,Ouled Zidane,Ouled Zidane,ouled-zidane,MA002009_ouled-zidane,26312,32.775,-7.498
MA002009_ras-el-ain,Ras El Ain,Ras El Ain,ras-el-ain,MA002009_ras-el-ain,26552,32.994,-7.573
MA002009_rima,Rima,Rima,rima,MA002009_rima,26372,32.787,-7.355
MA002009_sebt-oulad-friha,Sebt Oulad Friha,Sebt Oulad Friha,sebt-oulad-friha,MA002009_sebt-oulad-friha,26024,32.978,-7.746
MA002009_sgamna,Sgamna,Sgamna,sgamna,MA002009_sgamna,26064,32.775,-7.498
MA002009_sidi-abdelkrim,Sidi Abdelkrim,Sidi Abdelkrim,sidi-abdelkrim,MA002009_sidi-abdelkrim,26065,32.775,-7.498
MA002009_sidi-ahmed-el-khadir,Sidi Ahmed El Khadir,Sidi Ahmed El Khadir,sidi-ahmed-el-khadir,MA002009_sidi-ahmed-el-khadir,26174,32.52,-7.381
MA002009_sidi-boumehdi,Sidi Boumehdi,Sidi Boumehdi,sidi-boumehdi,MA002009_sidi-boumehdi,26704,32.775,-7.498
MA002009_sidi-dahbi,Sidi Dahbi,Sidi Dahbi,sidi-dahbi,MA002009_sidi-dahbi,26074,33.058,-7.181
MA002009_sidi-el-aidi,Sidi El Aidi,Sidi El Aidi,sidi-el-aidi,MA002009_sidi-el-aidi,26026,33.124,-7.624
MA002009_sidi-hajjaj,Sidi Hajjaj,Sidi Hajjaj,sidi-hajjaj,MA002009_sidi-hajjaj,26600,32.913,-7.266
MA002009_sidi-mohammed-ben-rahal,Sidi Mohammed Ben Rahal,Sidi Mohammed Ben Rahal,sidi-mohammed-ben-rahal,MA002009_sidi-mohammed-ben-rahal,26033,32.775,-7.498
MA002009_sidi-rahhal-chaouia,Sidi Rahhal Chaouia,Sidi Rahhal Chaouia,sidi-rahhal-chaouia,MA002009_sidi-rahhal-chaouia,26652,32.811,-7.434
MA002009_sidi-rahhal-plage,Sidi Rahhal Plage,Sidi Rahhal Plage,sidi-rahhal-plage,MA002009_sidi-rahhal-plage,26175,32.534,-7.441
MA002009_sidi-said-maachou,Sidi Said Maachou,Sidi Said Maachou,sidi-said-maachou,MA002009_sidi-said-maachou,26474,32.816,-7.411
MA002009_tamadroust,Tamadroust,Tamadroust,tamadroust,MA002009_tamadroust,26034,32.775,-7.498
MA002009_tleta-ain-blal,Tleta Ain Blal,Tleta Ain Blal,tleta-ain-blal,MA002009_tleta-ain-blal,26674,32.754,-7.799
MA002009_tleta-loulad,Tleta Loulad,Tleta Loulad,tleta-loulad,MA002009_tleta-loulad,26700,32.995,-7.12
MA002009_tleta-oulad-fares,Tleta Oulad Fares,Tleta Oulad Fares,tleta-oulad-fares,MA002009_tleta-oulad-fares,26623,32.79,-7.211
MA002009_tleta-oulad-sghir,Tleta Oulad Sghir,Tleta Oulad Sghir,tleta-oulad-sghir,MA002009_tleta-oulad-sghir,26232,32.861,-7.556
MA002009_tnine-toualet,Tnine Toualet,Tnine Toualet,tnine-toualet,MA002009_tnine-toualet,26675,32.778,-7.666
MA002009_zemamra-chaouia,Zemamra Chaouia,Zemamra Chaouia,zemamra-chaouia,MA002009_zemamra-chaouia,26676,32.754,-7.799
